[
    {
        "name": "Alaquas",
        "code": "AQ",
        "address": "Blasco Ibañez Este",
        "id": 1,
        "dmaId": 6,
        "assetName": "bomba",
        "coordinates": [
            -0.45248329639434814,
            39.4591586375919
        ],
        "state": "critical",
        "selected": true
    },
    {
        "name": "Alaquas",
        "code": "AQ",
        "address": "Blasco Ibañez Este",
        "id": 2,
        "dmaId": 6,
        "assetName": "deposito",
        "coordinates": [
            -0.4701805114746093,
            39.45402268055877
        ],
        "state": "warning",
        "selected": true
    },
    {
        "name": "Manises",
        "code": "MN",
        "address": "Manises Ficticio",
        "id": 4,
        "dmaId": 2,
        "assetName": "bomba",
        "coordinates": [
            -0.45799255371093744,
            39.489867063731005
        ],
        "state": "warning",
        "selected": true
    },
    {
        "name": "Picassent",
        "code": "PI",
        "address": "Picassent-S1-Deposito",
        "id": 6,
        "dmaId": 7,
        "assetName": "deposito",
        "coordinates": [
            -0.46919345855712885,
            39.36316967298492
        ],
        "state": "warning",
        "selected": true
    },
    {
        "name": "Paterna",
        "code": "PT",
        "address": "Depósito paterna",
        "id": 7,
        "dmaId": 1,
        "assetName": "bomba",
        "coordinates": [
            -0.4445171356201172,
            39.50457050531535
        ],
        "state": "critical",
        "selected": true
    },
    {
        "name": "Xirivella",
        "code": "XV",
        "address": "Depósito xirivella",
        "id": 8,
        "dmaId": 5,
        "assetName": "deposito",
        "coordinates": [
            -0.4332733154296875,
            39.465089368099164
        ],
        "state": "critical",
        "selected": true
    },
    {
        "name": "Mislata",
        "code": "XV",
        "address": "Depósito xirivella",
        "id": 9,
        "dmaId": 3,
        "assetName": "bomba",
        "coordinates": [
            -0.4154634475708008,
            39.475458648837424
        ],
        "state": "ok",
        "selected": true
    },
    {
        "name": "Alboraia",
        "code": "XV",
        "address": "Depósito alboraia",
        "id": 9,
        "dmaId": 10,
        "assetName": "deposito",
        "coordinates": [
            -0.3489875793457031,
            39.4993385559825
        ],
        "state": "critical",
        "selected": true
    },
    {
        "name": "Burjassot",
        "code": "XV",
        "address": "Bomba Burjassot",
        "id": 10,
        "dmaId": 8,
        "assetName": "bomba",
        "coordinates": [
            -0.41275978088378906,
            39.51006693919181
        ],
        "state": "normal",
        "selected": true
    }
]